Addresses,Animal Units,latitude,longitude
"MARTINSBURG, PA 16662-8020",4606.59,40.3111875,-78.3241795
"SPRUCE CREEK, PA 16683-1508",7533.19,40.6092784,-78.1355118
"PEACH BOTTOM, PA 17563-9406",1828.06,39.7506049,-76.22692119999999
"GREENCASTLE, PA 17225-9382",1896.3,39.790371,-77.7277714
"LOGANTON, PA 17747-8935",2097.33,41.0342375,-77.3066405
"MILL HALL, PA 17751-8938",2031.91,41.10729,-77.48443
"ROARING BRANCH, PA 17765-8959",1516.04,41.5937185,-76.9873477
"BELLEFONTE, PA 16823-6704",2723.5,40.91339430000001,-77.7783348
"ULYSSES, PA 16948",2136.5,41.9039569,-77.7619373
"MIFFLINBURG, PA 17844-7714",2146.5,40.917582,-77.0477501
"SHINGLEHOUSE, PA 16748-8537",1726.27,41.96367679999999,-78.1908437
"CONNEAUTVILLE, PA 16406-4746",2605.0,41.757833,-80.3678424
"COCHRANVILLE, PA 19330-9471",1607.99,39.8917958,-75.92140049999999
"KIRKWOOD, PA 17536-9759",504.22,39.8424559,-76.07399989999999
"QUARRYVILLE, PA 17566-9630",1678.05,39.897047,-76.1635655
"PEACH BOTTOM, PA 17563-9507",1727.36,39.7506049,-76.22692119999999
"NARVON, PA 17555-9646",1594.16,40.1102194,-75.9579358
"SPRUCE CREEK, PA 16683-1500",1531.3,40.6092784,-78.1355118
"PEACH BOTTOM, PA 17563-9620",1009.82,39.7506049,-76.22692119999999
"QUARRYVILLE, PA 17566-9614",1052.65,39.897047,-76.1635655
"ALEXANDRIA, PA 16611-2737",1839.65,40.5564586,-78.09778469999999
"ALEXANDRIA, PA 16611-2737",1839.65,40.5564586,-78.09778469999999
"QUARRYVILLE, PA 17566-9773",4709.06,39.897047,-76.1635655
"PEACH BOTTOM, PA 17563-9676",705.6,39.7506049,-76.22692119999999
"TOWNVILLE, PA 16360-3009",2304.75,41.67783499999999,-79.8797766
"WILLIAMSBURG, PA 16693-6713",4492.76,40.4620172,-78.19973200000001
"LOYSVILLE, PA 17047-6100",1222.8,40.3656102,-77.3445942
"BLAIN, PA 17006",1229.6,40.3384161,-77.51248819999999
"BELLEVILLE, PA 17004-9296",1279.63,40.6050706,-77.7255502
"NOTTINGHAM, PA 19362",1116.1,39.7509084,-76.0241274
"MYERSTOWN, PA 17067-1852",367.19,40.3745363,-76.30273179999999
"MANHEIM, PA 17545-9685",488.28,40.16342789999999,-76.3949614
"ELIZABETHTOWN, PA 17022-9641",859.7,40.1528719,-76.6027455
"LEBANON, PA 17042-4752",937.33,40.3409251,-76.4113497
"COCHRANVILLE, PA 19330",1950.0,39.8917958,-75.92140049999999
"COCHRANVILLE, PA 19330",1950.0,39.8917958,-75.92140049999999
"MOUNT JOY, PA 17552-8911",1405.93,40.109818,-76.50329959999999
"LEBANON, PA 17042-9512",1204.65,40.3409251,-76.4113497
"BERNVILLE, PA 19506-8740",1184.18,40.433426,-76.1121648
"ELIZABETHTOWN, PA 17022",2140.07,40.1528719,-76.6027455
"CHAMBERSBURG, PA 17202-9209",1387.14,39.9375911,-77.6611022
"REINHOLDS, PA 17569-9422",1481.5,40.2670462,-76.1154669
"MOUNT JOY, PA 17552-9045",2006.6,40.109818,-76.50329959999999
"MARTINSBURG, PA 16662",4395.05,40.3111875,-78.3241795
"BERNVILLE, PA 19506-8909",2968.61,40.433426,-76.1121648
"CHAMBERSBURG, PA 17201",1707.8,39.9375911,-77.6611022
"LEBANON, PA 17042-9741",671.21,40.3409251,-76.4113497
"BAINBRIDGE, PA 17502-9407",1296.5,40.0909286,-76.6674673
"GETTYSBURG, PA 17325-7127",4738.35,39.8309293,-77.2310955
"MANHEIM, PA 17545-9385",14180.95,40.16342789999999,-76.3949614
"LITITZ, PA 17543-9450",1380.36,40.1573169,-76.3069014
"MOUNT JOY, PA 17552-9241",3678.3,40.109818,-76.50329959999999
"LANCASTER, PA 17603-9499",1144.36,40.0144597,-76.3289941
"CONESTOGA, PA 17516",2404.6,39.9454909,-76.3379045
"COCHRANVILLE, PA 19330-9787",1439.27,39.8917958,-75.92140049999999
"COCHRANVILLE, PA 19330-9787",1439.27,39.8917958,-75.92140049999999
"GETTYSBURG, PA 17325-7844",1602.12,39.8309293,-77.2310955
"WASHINGTON BORO, PA 17582-9674",1461.17,39.9925984,-76.4671863
"SHIPPENSBURG, PA 17257-9798",1038.99,40.0506453,-77.5202647
"CHAMBERSBURG, PA 17202-7347",1525.5,39.9375911,-77.6611022
"FAYETTEVILLE, PA 17222-9661",1258.79,39.9112028,-77.5499888
"MIFFLINTOWN, PA 17059-8134",1041.65,40.5661982,-77.39273039999999
"MERCERSBURG, PA 17236-8705",2612.1,39.82786979999999,-77.9033314
"MERCERSBURG, PA 17236-8705",2612.1,39.82786979999999,-77.9033314
"COCHRANVILLE, PA 19330",1169.8,39.8917958,-75.92140049999999
"COCHRANVILLE, PA 19330",1169.8,39.8917958,-75.92140049999999
"EVERETT, PA 15537",1630.71,40.01147110000001,-78.3733484
"MANHEIM, PA 17545",377.8,40.16342789999999,-76.3949614
"HALIFAX, PA 17032",1476.9,40.4681409,-76.9319198
"NEWPORT, PA 17074-8231",1222.43,40.4778612,-77.1305373
"MIFFLINTOWN, PA 17059-7772",1267.1,40.5661982,-77.39273039999999
"MERCERSBURG, PA 17236",1381.5,39.82786979999999,-77.9033314
"REEDSVILLE, PA 17084",889.46,40.66395869999999,-77.595828
"LEBANON, PA 17042",580.41,40.2927633,-76.3868797
"WASHINGTON BORO, PA 17582",2811.12,39.9925984,-76.4671863
"MANHEIM, PA 17545",529.39,40.16342789999999,-76.3949614
"MOHRSVILLE, PA 19541",553.58,40.4744405,-75.9777786
"NEWVILLE, PA 17241",2618.5,40.1731433,-77.3985963
"GRANVILLE SUMMIT, PA 16926",802.17,41.7127389,-76.745195
"MIDDLEBURG, PA 17842-9246",780.8,40.7859166,-77.0472027
"SELINSGROVE, PA 17870-8161",1314.66,40.7989735,-76.8621935
"SELINSGROVE, PA 17870-8161",1314.66,40.7989735,-76.8621935
"GRANVILLE SUMMIT, PA 16926-9202",805.82,41.71785269999999,-76.77912239999999
"MILAN, PA 18831-7977",1554.84,41.9075745,-76.52327729999999
"LIBERTY, PA 16930-9505",768.54,41.5584074,-77.1046928
"BERLIN, PA 15530",2004.67,39.9206363,-78.9578022
"ROCKWOOD, PA 15557-7802",1443.95,39.9156337,-79.15225149999999
"BERLIN, PA 15530-6535",1122.04,39.9206363,-78.9578022
"LINCOLN UNIVERSITY, PA 19352-1005",1404.6,39.8086987,-75.9270918
